[
  { "cidade": "São Paulo", "estado": "SP", "lat": -23.5505, "lng": -46.6333, "data": "2026-06-14", "hora": "08:00" },
  { "cidade": "Rio de Janeiro", "estado": "RJ", "lat": -22.9068, "lng": -43.1729, "data": "2026-06-14", "hora": "08:00" },
  { "cidade": "Belo Horizonte", "estado": "MG", "lat": -19.9167, "lng": -43.9345, "data": "2026-06-14", "hora": "08:00" },
  { "cidade": "Salvador", "estado": "BA", "lat": -12.9714, "lng": -38.5014, "data": "2026-06-14", "hora": "08:00" },
  { "cidade": "Fortaleza", "estado": "CE", "lat": -3.7172, "lng": -38.5433, "data": "2026-06-14", "hora": "08:00" },
  { "cidade": "Curitiba", "estado": "PR", "lat": -25.4284, "lng": -49.2733, "data": "2026-06-14", "hora": "08:00" },
  { "cidade": "Manaus", "estado": "AM", "lat": -3.1190, "lng": -60.0217, "data": "2026-06-14", "hora": "08:00" },
  { "cidade": "Recife", "estado": "PE", "lat": -8.0476, "lng": -34.8770, "data": "2026-06-14", "hora": "08:00" },
  { "cidade": "Porto Alegre", "estado": "RS", "lat": -30.0346, "lng": -51.2177, "data": "2026-06-14", "hora": "08:00" },
  { "cidade": "Belém", "estado": "PA", "lat": -1.4558, "lng": -48.5044, "data": "2026-06-14", "hora": "08:00" },
  { "cidade": "Goiânia", "estado": "GO", "lat": -16.6869, "lng": -49.2648, "data": "2026-06-14", "hora": "08:00" },
  { "cidade": "Florianópolis", "estado": "SC", "lat": -27.5954, "lng": -48.5480, "data": "2026-06-14", "hora": "08:00" },
  { "cidade": "Maceió", "estado": "AL", "lat": -9.6658, "lng": -35.7350, "data": "2026-06-14", "hora": "08:00" },
  { "cidade": "Natal", "estado": "RN", "lat": -5.7945, "lng": -35.2110, "data": "2026-06-14", "hora": "08:00" },
  { "cidade": "Teresina", "estado": "PI", "lat": -5.0892, "lng": -42.8019, "data": "2026-06-14", "hora": "08:00" },
  { "cidade": "Campo Grande", "estado": "MS", "lat": -20.4697, "lng": -54.6201, "data": "2026-06-14", "hora": "08:00" },
  { "cidade": "João Pessoa", "estado": "PB", "lat": -7.1195, "lng": -34.8450, "data": "2026-06-14", "hora": "08:00" },
  { "cidade": "Aracaju", "estado": "SE", "lat": -10.9472, "lng": -37.0731, "data": "2026-06-14", "hora": "08:00" },
  { "cidade": "Cuiabá", "estado": "MT", "lat": -15.6014, "lng": -56.0979, "data": "2026-06-14", "hora": "08:00" },
  { "cidade": "Porto Velho", "estado": "RO", "lat": -8.7612, "lng": -63.9004, "data": "2026-06-14", "hora": "08:00" },
  { "cidade": "Macapá", "estado": "AP", "lat": 0.0349, "lng": -51.0694, "data": "2026-06-14", "hora": "08:00" },
  { "cidade": "Rio Branco", "estado": "AC", "lat": -9.9754, "lng": -67.8249, "data": "2026-06-14", "hora": "08:00" },
  { "cidade": "Palmas", "estado": "TO", "lat": -10.2491, "lng": -48.3243, "data": "2026-06-14", "hora": "08:00" },
  { "cidade": "São Luís", "estado": "MA", "lat": -2.5297, "lng": -44.3028, "data": "2026-06-14", "hora": "08:00" },
  { "cidade": "Vitória", "estado": "ES", "lat": -20.3155, "lng": -40.3128, "data": "2026-06-14", "hora": "08:00" },
  { "cidade": "Boa Vista", "estado": "RR", "lat": 2.8235, "lng": -60.6758, "data": "2026-06-14", "hora": "08:00" },
  { "cidade": "Brasília", "estado": "DF", "lat": -15.7801, "lng": -47.9292, "data": "2026-06-14", "hora": "08:00" }
]
